{"type":"FeatureCollection","features":[{"type":"Feature","id":2,"properties":{"NAME":"Duffy Boating in Newport Harbor","TEL":"714-621-5785","URL":"https://boatrentalsnewportbeach.com/","ADDRESS1":"670 Lido Park Drive, Newport Beach, CA 92663","ADDRES2":null,"CITY":"New York","ZIP":10022},"geometry":{"type":"Point","coordinates":[-117.88887977600098,33.64774301486052]}},{"type":"Feature","id":3,"properties":{"NAME":"Boating at Oso Lake Scout Camp","TEL":"(714) 923-3191","URL":"https://www.osolake.org/customgroups","ADDRESS1":"21131 Los Alisos Blvd, Rancho Santa Margarita, CA 92688","ADDRES2":null,"CITY":"New York","ZIP":10036},"geometry":{"type":"Point","coordinates":[-117.62731075286865,33.66092464108172]}},{"type":"Feature","id":8,"properties":{"NAME":"Corona Del Mar State Beach Bon Fire Pits","TEL":"(949) 718-1859","URL":"https://www.newportbeachca.gov/trending/projects-issues/fire-rings","ADDRESS1":"3001 Ocean Boulevard, Corona del Mar, 92625","ADDRES2":null,"CITY":"New York","ZIP":10023},"geometry":{"type":"Point","coordinates":[-117.87709951400755,33.593360876984676]}},{"type":"Feature","id":9,"properties":{"NAME":"Huntington State Beach Bon Fire Pits","TEL":"(714) 536-1454","URL":"https://www.parks.ca.gov/?page_id=643","ADDRESS1":"21601 Pacific Coast Hwy, Huntington Beach, CA 92646","ADDRES2":"Frnt","CITY":"New York","ZIP":10003},"geometry":{"type":"Point","coordinates":[-117.9779827594757,33.64135688063039]}},{"type":"Feature","id":10,"properties":{"NAME":"Bolsa Chica State Beach Bon Fire Pits","TEL":"(714) 377-5691","URL":"https://www.parks.ca.gov/?page_id=642","ADDRESS1":"18379 E Pacific Coast Hwy, Huntington Beach, CA 92648","ADDRES2":null,"CITY":"New York","ZIP":10011},"geometry":{"type":"Point","coordinates":[-118.04068207740784,33.687451452565924]}},{"type":"Feature","id":15,"properties":{"NAME":"Newport Bay Conservancy Kayaking Tours","TEL":"(949) 923-2269","URL":"https://newportbay.org/","ADDRESS1":"2301 University Dr, Newport Beach, CA 92660","ADDRES2":null,"CITY":"New York","ZIP":10036},"geometry":{"type":"Point","coordinates":[-117.92673110961913,33.6170495128545]}},{"type":"Feature","id":16,"properties":{"NAME":"Water Activities at Puddingstone Reservoir/Bonelli Park","TEL":"909-599-8411","URL":"https://www.bonellipark.org/","ADDRESS1":"120 East Via Verde Dr. San Dimas, CA 91773","ADDRES2":null,"CITY":"New York","ZIP":10012},"geometry":{"type":"Point","coordinates":[-117.8004741668701,34.082379327808304]}},{"type":"Feature","id":17,"properties":{"NAME":"Crystal Cove State Park Tidepools","TEL":"949-494-3539","URL":"https://www.crystalcovestatepark.org/tidepool-explorations/","ADDRESS1":"Moro Canyon or Los Trancos Parking Lots","ADDRES2":null,"CITY":"New York","ZIP":10036},"geometry":{"type":"Point","coordinates":[-117.83948421478273,33.573563231963874]}},{"type":"Feature","id":19,"properties":{"NAME":"1000 Steps Beach","TEL":"1-800-877-1115","URL":"https://www.visitlagunabeach.com/things-to-do/beaches/thousand-steps/","ADDRESS1":"intersection of 9th Avenue & Coast Highway in Laguna Beach","ADDRES2":null,"CITY":"Laguna Beach","ZIP":10019},"geometry":{"type":"Point","coordinates":[-117.73842930793762,33.49215976141427]}},{"type":"Feature","id":22,"properties":{"NAME":"Capt Dave's Dana Point Dolphin & Whale Watching Safari","TEL":"949.577.8403","URL":"https://www.dolphinsafari.com/","ADDRESS1":"24440 Dana Point Harbor Dr, Dana Point, CA 92629","ADDRES2":null,"CITY":"New York","ZIP":10036},"geometry":{"type":"Point","coordinates":[-117.70298257470131,33.46254652094088]}},{"type":"Feature","id":23,"properties":{"NAME":"Westwind Sailing/Paddleboating","TEL":"(909) 597-7582","URL":"https://westwindsailing.com/dana-point","ADDRESS1":"34451 Ensenada Pl, Dana Point, CA 92629","ADDRES2":null,"CITY":"New York","ZIP":10036},"geometry":{"type":"Point","coordinates":[-117.70385026931763,33.46249617440165]}}]}