{"type":"FeatureCollection","features":[{"type":"Feature","id":4,"properties":{"NAME":"Mile Square Park Camping at Camp Sycamore","TEL":"714-973-6600","URL":"https://ocparks.com/parks-trails/mile-square-regional-park","ADDRESS1":"16801 Euclid St. Fountain Valley, CA 92708","ADDRES2":null,"CITY":"New York","ZIP":10036},"geometry":{"type":"Point","coordinates":[-117.94175684452057,33.72712370796319]}},{"type":"Feature","id":18,"properties":{"NAME":"Camping at Crystal Cove State Park","TEL":"(800) 444-7275","URL":"http://www.crystalcovestatepark.org/moro-campground-information/","ADDRESS1":"8471 N Coast Hwy, Laguna Beach, CA 92651","ADDRES2":null,"CITY":"New York","ZIP":10036},"geometry":{"type":"Point","coordinates":[-117.8222644329071,33.563157592629054]}},{"type":"Feature","id":25,"properties":{"NAME":"Cabin Lodging at Canyon RV Park","TEL":"714-637-0210","URL":"http://www.canyonrvpark.com/our-cabins","ADDRESS1":"24001 E Santa Ana Canyon Rd, Anaheim, CA 92808","ADDRES2":null,"CITY":"New York","ZIP":10036},"geometry":{"type":"Point","coordinates":[-117.71358132362364,33.86826865874893]}},{"type":"Feature","id":27,"properties":{"NAME":"Doheny State Beach Camping","TEL":"(949) 496-6171","URL":"https://www.parks.ca.gov/?page_id=645","ADDRESS1":"34381 Pacific Coast Hwy, Dana Point, CA 92629","ADDRES2":null,"CITY":"New York","ZIP":10036},"geometry":{"type":"Point","coordinates":[-117.68069744110107,33.46224556008247]}}]}