{
"type": "FeatureCollection",
                                                                                
"features": [
{ "type": "Feature", "id": 0, "properties": { "NAME": "Outdoor Educ Center Activities", "TEL": "(714) 923-3191", "URL": "https://www.outdooreducationcenter.org/", "ADDRESS1": "2 Irvine Park Rd, Orange, CA 92869", "ADDRES2": null, "CITY": "New York", "ZIP": 10036.0 }, "geometry": { "type": "Point", "coordinates": [ -117.75105714797975, 33.802704568769016 ] } }
,
{ "type": "Feature", "id": 1, "properties": { "NAME": "California Survival School", "TEL": "949-216-0252", "URL": "https://www.casurvival.com/", "ADDRESS1": "Tonner Canyon Rd, Brea, CA 92821", "ADDRES2": null, "CITY": "New York", "ZIP": 10036.0 }, "geometry": { "type": "Point", "coordinates": [ -117.83557891845705, 33.93588316913496 ] } }
,
{ "type": "Feature", "id": 2, "properties": { "NAME": "Duffy Boating in Newport Harbor", "TEL": "714-621-5785", "URL": "https://boatrentalsnewportbeach.com/", "ADDRESS1": "670 Lido Park Drive, Newport Beach, CA 92663", "ADDRES2": null, "CITY": "New York", "ZIP": 10022.0 }, "geometry": { "type": "Point", "coordinates": [ -117.88887977600098, 33.64774301486052 ] } }
,
{ "type": "Feature", "id": 3, "properties": { "NAME": "Boating at Oso Lake Scout Camp", "TEL": "(714) 923-3191", "URL": "https://www.osolake.org/customgroups", "ADDRESS1": "21131 Los Alisos Blvd, Rancho Santa Margarita, CA 92688", "ADDRES2": null, "CITY": "New York", "ZIP": 10036.0 }, "geometry": { "type": "Point", "coordinates": [ -117.62731075286865,
          33.66092464108172 ] } }
,
{ "type": "Feature", "id": 4, "properties": { "NAME": "Mile Square Park Camping at Camp Sycamore", "TEL": "714-973-6600", "URL": "https://ocparks.com/parks-trails/mile-square-regional-park", "ADDRESS1": "16801 Euclid St. Fountain Valley, CA 92708", "ADDRES2": null, "CITY": "New York", "ZIP": 10036.0 }, "geometry": { "type": "Point", "coordinates": [ -117.94175684452057, 33.72712370796319 ] } }
,
{ "type": "Feature", "id": 5, "properties": { "NAME": "Mile Square Park Archery", "TEL": "714-973-6600", "URL": "https://www.ocparks.com/parks-trails/mile-square-regional-park/archery-range", "ADDRESS1": "16801 Euclid St. Fountain Valley, CA 92708", "ADDRES2": null, "CITY": "New York", "ZIP": 10019.0 }, "geometry": { "type": "Point", "coordinates": [ -117.93944343924521, 33.72549299954183 ] } }
,
{ "type": "Feature", "id": 6, "properties": { "NAME": "Upper Moro Canyon Trail and Crystal Cove State Park", "TEL": "(949) 494-9143", "URL": "https://www.crystalcovestatepark.org/", "ADDRESS1": "Pacific Ridge Trailhead Newport Beach, CA 92657", "ADDRES2": null, "CITY": "New York", "ZIP": 10036.0 }, "geometry": { "type": "Point", "coordinates": [ -117.79094696044922, 33.58630932470067 ] } }
,
{ "type": "Feature", "id": 7, "properties": { "NAME": "Top of the World", "TEL": "(949) 497-9229", "URL": "https://www.visitlagunabeach.com/directory/top-of-the-world/", "ADDRESS1": "Just North Of Alta Laguna Park in Laguna Beach", "ADDRES2": null, "CITY": "New York", "ZIP": 10027.0 }, "geometry": { "type": "Point", "coordinates": [ -117.76084721088411, 33.55761008776709 ] } }
,
{ "type": "Feature", "id": 8, "properties": { "NAME": "Corona Del Mar State Beach Bon Fire Pits", "TEL": "(949) 718-1859", "URL": "https://www.newportbeachca.gov/trending/projects-issues/fire-rings", "ADDRESS1": "3001 Ocean Boulevard, Corona del Mar, 92625", "ADDRES2": null, "CITY": "New York", "ZIP": 10023.0 }, "geometry": { "type": "Point", "coordinates": [-117.87709951400755, 33.593360876984676 ] } }
,
{ "type": "Feature", "id": 9, "properties": { "NAME": "Huntington State Beach Bon Fire Pits", "TEL": "(714) 536-1454", "URL": "https://www.parks.ca.gov/?page_id=643", "ADDRESS1": "21601 Pacific Coast Hwy, Huntington Beach, CA 92646", "ADDRES2": "Frnt", "CITY": "New York", "ZIP": 10003.0 }, "geometry": { "type": "Point", "coordinates": [ -117.9779827594757, 33.64135688063039 ] } }
,
{ "type": "Feature", "id": 10, "properties": { "NAME": "Bolsa Chica State Beach Bon Fire Pits", "TEL": "(714) 377-5691", "URL": "https://www.parks.ca.gov/?page_id=642", "ADDRESS1": "18379 E Pacific Coast Hwy, Huntington Beach, CA 92648", "ADDRES2": null, "CITY": "New York", "ZIP": 10011.0 }, "geometry": { "type": "Point", "coordinates": [ -118.04068207740784, 33.687451452565924 ] } }
,
{ "type": "Feature", "id": 11, "properties": { "NAME": "Laguna Beach Sawdust Festival", "TEL": "(949) 494-3030", "URL": "http://www.sawdustartfestival.org/", "ADDRESS1": "935 Laguna Canyon Rd, Laguna Beach, CA 92651", "ADDRES2": null, "CITY": "New York", "ZIP": 10019.0 }, "geometry": { "type": "Point", "coordinates": [ -117.7783700823784, 33.55045725913266 ] } }
,
{ "type": "Feature", "id": 12, "properties": { "NAME": "Scenic Drive to Top of the World via Park Avenue", "TEL": "(949) 497-9229", "URL": "https://www.visitlagunabeach.com/directory/top-of-the-world/", "ADDRESS1": "Drive ends at 3299 Alta Laguna Blvd, Laguna Beach, CA 92651", "ADDRES2": null, "CITY": "New York", "ZIP": 10014.0 }, "geometry": { "type": "Point", "coordinates": [ -117.76326656341553, 33.5474394819265 ] } }
,
{ "type": "Feature", "id": 13, "properties": { "NAME": "Live Oaks Cyn Rd to Trabuco Creek Rd Scenic Drive", "TEL": "Not Applicable", "URL": "https://www.orangecountyoutdoors.com/get-out-there/scenic-drives/live-oak-canyon", "ADDRESS1": "Starts El Toro Rd intersection of Live Oak Cyn Rd", "ADDRES2": null, "CITY": "New York", "ZIP": 10023.0 }, "geometry": { "type": "Point", "coordinates": [ -117.59971618652344, 33.65356604178638 ] } }
,
{ "type": "Feature", "id": 14, "properties": { "NAME": "Scenic Drive to Top of the World via Park Avenue", "TEL": "(949) 497-9229", "URL": "https://www.visitlagunabeach.com/directory/top-of-the-world/", "ADDRESS1": "3299 Alta Laguna Blvd, Laguna Beach, CA 92651", "ADDRES2": null, "CITY": "New York", "ZIP": 10036.0 }, "geometry": { "type": "Point", "coordinates": [ -117.51079559326172, 33.6023241854669 ] } }
,
{ "type": "Feature", "id": 15, "properties": { "NAME": "Newport Bay Conservancy Kayaking Tours", "TEL": "(949) 923-2269", "URL": "https://newportbay.org/", "ADDRESS1": "2301 University Dr, Newport Beach, CA 92660", "ADDRES2": null, "CITY": "New York", "ZIP": 10036.0 }, "geometry": { "type": "Point", "coordinates": [  -117.92673110961913, 33.6170495128545 ] } }
,
{ "type": "Feature", "id": 16, "properties": { "NAME": "Water Activities at Puddingstone Reservoir/Bonelli Park", "TEL": "909-599-8411", "URL": "https://www.bonellipark.org/", "ADDRESS1": "120 East Via Verde Dr. San Dimas, CA 91773", "ADDRES2": null, "CITY": "New York", "ZIP": 10012.0 }, "geometry": { "type": "Point", "coordinates": [ -117.8004741668701, 34.082379327808304 ] } }
,
{ "type": "Feature", "id": 17, "properties": { "NAME": "Crystal Cove State Park Tidepools", "TEL": "949-494-3539", "URL": "https://www.crystalcovestatepark.org/tidepool-explorations/", "ADDRESS1": "Moro Canyon or Los Trancos Parking Lots", "ADDRES2": null, "CITY": "New York", "ZIP": 10036.0 }, "geometry": { "type": "Point", "coordinates": [ -117.83948421478273, 33.573563231963874 ] } }
,
{ "type": "Feature", "id": 18, "properties": { "NAME": "Camping at Crystal Cove State Park", "TEL": "(800) 444-7275", "URL": "http://www.crystalcovestatepark.org/moro-campground-information/", "ADDRESS1": "8471 N Coast Hwy, Laguna Beach, CA 92651", "ADDRES2": null, "CITY": "New York", "ZIP": 10036.0 }, "geometry": { "type": "Point", "coordinates": [ -117.8222644329071, 33.563157592629054 ] } }
,
{ "type": "Feature", "id": 19, "properties": { "NAME": "1000 Steps Beach", "TEL": "1-800-877-1115", "URL": "https://www.visitlagunabeach.com/things-to-do/beaches/thousand-steps/", "ADDRESS1": "intersection of 9th Avenue & Coast Highway in Laguna Beach", "ADDRES2": null, "CITY": "Laguna Beach", "ZIP": 10019.0 }, "geometry": { "type": "Point", "coordinates": [ -117.73842930793762, 33.49215976141427 ] } }
,
{ "type": "Feature", "id": 20, "properties": { "NAME": "Nix Nature Center", "TEL": "949-923-2235", "URL": "https://www.visitlagunabeach.com/directory/nix-nature-center/", "ADDRESS1": "18751 Laguna Canyon Road Laguna Beach, California 92651", "ADDRES2": null, "CITY": "New York", "ZIP": 10036.0 }, "geometry": { "type": "Point", "coordinates": [-117.76402831077577, 33.60812347688535 ] } }
,
{ "type": "Feature", "id": 21, "properties": { "NAME": "Archery at Prado Dam", "TEL": "(909) 597-7582", "URL": "https://www.orancobowmen.org/", "ADDRESS1": "17504 Pomona Rincon Rd, Chino, CA 91708", "ADDRES2": null, "CITY": "New York", "ZIP": 10036.0 }, "geometry": { "type": "Point", "coordinates": [-117.66215801239014, 33.95243800782869 ] } },
{ "type": "Feature", "id": 22, "properties": { "NAME": "Capt Dave's Dana Point Dolphin & Whale Watching Safari", "TEL": "949.577.8403", "URL": "https://www.dolphinsafari.com/", "ADDRESS1": "24440 Dana Point Harbor Dr, Dana Point, CA 92629", "ADDRES2": null, "CITY": "New York", "ZIP": 10036.0 }, "geometry": { "type": "Point", "coordinates": [-117.70298257470131, 33.46254652094088 ] } },
{ "type": "Feature", "id": 23, "properties": { "NAME": "Westwind Sailing/Paddleboating", "TEL": "(909) 597-7582", "URL": "https://westwindsailing.com/dana-point", "ADDRESS1": "34451 Ensenada Pl, Dana Point, CA 92629", "ADDRES2": null, "CITY": "New York", "ZIP": 10036.0 }, "geometry": { "type": "Point", "coordinates": [-117.70385026931763, 33.46249617440165 ] } },
{ "type": "Feature", "id": 24, "properties": { "NAME": "Orange County Ropes Course", "TEL": "+17146161026", "URL": "http://www.ocropescourse.com/", "ADDRESS1": "24001 E Santa Ana Canyon Rd, Anaheim, CA 92808", "ADDRES2": null, "CITY": "New York", "ZIP": 10036.0 }, "geometry": { "type": "Point", "coordinates": [-117.71934807300566, 33.86789450603698 ] } },
{ "type": "Feature", "id": 25, "properties": { "NAME": "Cabin Lodging at Canyon RV Park", "TEL": "714-637-0210", "URL": "http://www.canyonrvpark.com/our-cabins", "ADDRESS1": "24001 E Santa Ana Canyon Rd, Anaheim, CA 92808", "ADDRES2": null, "CITY": "New York", "ZIP": 10036.0 }, "geometry": { "type": "Point", "coordinates": [-117.71358132362364, 33.86826865874893] } },
{ "type": "Feature", "id": 26, "properties": { "NAME": "Horseback Riding Trail w/Horse Provided (no experience needed)", "TEL": "(714)-538-5860", "URL": "http://ctriding.com/", "ADDRESS1": "Irvine Regional Park 1 Irvine Park Road", "ADDRES2": null, "CITY": "New York", "ZIP": 10036.0 }, "geometry": { "type": "Point", "coordinates": [-117.75338396430016, 33.79675234177975] } },
{ "type": "Feature", "id": 27, "properties": { "NAME": "Doheny State Beach Camping", "TEL": "(949) 496-6171", "URL": "https://www.parks.ca.gov/?page_id=645", "ADDRESS1": "34381 Pacific Coast Hwy, Dana Point, CA 92629", "ADDRES2": null, "CITY": "New York", "ZIP": 10036.0 }, "geometry": { "type": "Point", "coordinates": [-117.68069744110107, 33.46224556008247] } },
{ "type": "Feature", "id": 28, "properties": { "NAME": "San Clemente State Beach Camping", "TEL": "(949) 492-3156", "URL": "https://www.parks.ca.gov/?page_id=646", "ADDRESS1": "225 Avenida Calafia, San Clemente, CA 92672", "ADDRES2": null, "CITY": "New York", "ZIP": 10036.0 }, "geometry": { "type": "Point", "coordinates": [-117.60105729103087, 33.402641448813434] } },
{ "type": "Feature", "id": 29, "properties": { "NAME": "Orange County Zoo", "TEL": "714-973-6840", "URL": "https://www.ocparks.com/oc-zoo", "ADDRESS1": "1 Irvine Park Rd Orange, CA 92869", "ADDRES2": null, "CITY": "New York", "ZIP": 10036.0 }, "geometry": { "type": "Point", "coordinates": [ -117.75040268898009, 33.796401280079266] } },
{ "type": "Feature", "id": 30, "properties": { "NAME": "Pacific Marine Mammal Ctr.", "TEL": "949-494-3050", "URL": "https://www.pacificmmc.org/", "ADDRESS1": "20612 Laguna Canyon Road, Laguna Beach, CA 92651", "ADDRES2": null, "CITY": "New York", "ZIP": 10036.0 }, "geometry": { "type": "Point", "coordinates": [-117.7625195682049, 33.572939733486535] } },
{ "type": "Feature", "id": 31, "properties": { "NAME": "The Reptile Zoo", "TEL": "714-500-0591", "URL": "https://thereptilezoo.com/", "ADDRESS1": "18818 Brookhurst St Fountain Valley, CA 92708", "ADDRES2": null, "CITY": "New York", "ZIP": 10036.0 }, "geometry": { "type": "Point", "coordinates": [-117.95340299606322, 33.68976356702366] } }
]
}
