{"type":"FeatureCollection","features":[{"type":"Feature","id":0,"properties":{"NAME":"Outdoor Educ Center Activities","TEL":"(714) 923-3191","URL":"https://www.outdooreducationcenter.org/","ADDRESS1":"2 Irvine Park Rd, Orange, CA 92869","ADDRES2":null,"CITY":"New York","ZIP":10036},"geometry":{"type":"Point","coordinates":[-117.75105714797975,33.802704568769016]}},{"type":"Feature","id":1,"properties":{"NAME":"California Survival School","TEL":"949-216-0252","URL":"https://www.casurvival.com/","ADDRESS1":"Tonner Canyon Rd, Brea, CA 92821","ADDRES2":null,"CITY":"New York","ZIP":10036},"geometry":{"type":"Point","coordinates":[-117.83557891845705,33.93588316913496]}},{"type":"Feature","id":5,"properties":{"NAME":"Mile Square Park Archery","TEL":"714-973-6600","URL":"https://www.ocparks.com/parks-trails/mile-square-regional-park/archery-range","ADDRESS1":"16801 Euclid St. Fountain Valley, CA 92708","ADDRES2":null,"CITY":"New York","ZIP":10019},"geometry":{"type":"Point","coordinates":[-117.93944343924521,33.72549299954183]}},{"type":"Feature","id":11,"properties":{"NAME":"Laguna Beach Sawdust Festival","TEL":"(949) 494-3030","URL":"http://www.sawdustartfestival.org/","ADDRESS1":"935 Laguna Canyon Rd, Laguna Beach, CA 92651","ADDRES2":null,"CITY":"New York","ZIP":10019},"geometry":{"type":"Point","coordinates":[-117.7783700823784,33.55045725913266]}},{"type":"Feature","id":21,"properties":{"NAME":"Archery at Prado Dam","TEL":"(909) 597-7582","URL":"https://www.orancobowmen.org/","ADDRESS1":"17504 Pomona Rincon Rd, Chino, CA 91708","ADDRES2":null,"CITY":"New York","ZIP":10036},"geometry":{"type":"Point","coordinates":[-117.66215801239014,33.95243800782869]}},{"type":"Feature","id":24,"properties":{"NAME":"Orange County Ropes Course","TEL":"+17146161026","URL":"http://www.ocropescourse.com/","ADDRESS1":"24001 E Santa Ana Canyon Rd, Anaheim, CA 92808","ADDRES2":null,"CITY":"New York","ZIP":10036},"geometry":{"type":"Point","coordinates":[-117.71934807300566,33.86789450603698]}}]}