{"type":"FeatureCollection","features":[{"type":"Feature","id":7,"properties":{"NAME":"Top of the World","TEL":"(949) 497-9229","URL":"https://www.visitlagunabeach.com/directory/top-of-the-world/","ADDRESS1":"Just North Of Alta Laguna Park in Laguna Beach","ADDRES2":null,"CITY":"New York","ZIP":10027},"geometry":{"type":"Point","coordinates":[-117.76084721088411,33.55761008776709]}},{"type":"Feature","id":12,"properties":{"NAME":"Scenic Drive to Top of the World via Park Avenue","TEL":"(949) 497-9229","URL":"https://www.visitlagunabeach.com/directory/top-of-the-world/","ADDRESS1":"Drive ends at 3299 Alta Laguna Blvd, Laguna Beach, CA 92651","ADDRES2":null,"CITY":"New York","ZIP":10014},"geometry":{"type":"Point","coordinates":[-117.76326656341553,33.5474394819265]}},{"type":"Feature","id":14,"properties":{"NAME":"Scenic Drive to Lazy Ranch Camp","TEL":"(949) 497-9229","URL":"https://www.visitlagunabeach.com/directory/top-of-the-world/","ADDRESS1":"3299 Alta Laguna Blvd, Laguna Beach, CA 92651","ADDRES2":null,"CITY":"New York","ZIP":10036},"geometry":{"type":"Point","coordinates":[-117.51079559326172,33.6023241854669]}},{"type":"Feature","properties":{"NAME":"Live Oak Cyn Rd to Cleveland National Forest","URL":"https://www.fs.usda.gov/recarea/cleveland/recarea/?recid=47402","ADDRESS1":"El Toro Rd & Live Oak Cyn Rd","TEL":"(951) 736-1811"},"geometry":{"type":"Point","coordinates":[-117.59971618652344,33.653173089174864]}},{"type":"Feature","properties":{"NAME":"Silverado Cyn Rd to Cleveland National Forest","URL":"https://www.fs.usda.gov/recarea/cleveland/recarea/?recid=75035","ADDRESS1":"E Santiago Cyn Rd & Silverado Cyn Rd","TEL":"(951) 736-1811"},"geometry":{"type":"Point","coordinates":[-117.5831937789917,33.74778707362848]}}]}