{"type":"FeatureCollection","features":[{"type":"Feature","id":20,"properties":{"NAME":"Nix Nature Center","TEL":"949-923-2235","URL":"https://www.visitlagunabeach.com/directory/nix-nature-center/","ADDRESS1":"18751 Laguna Canyon Road Laguna Beach, California 92651","ADDRES2":null,"CITY":"New York","ZIP":10036},"geometry":{"type":"Point","coordinates":[-117.76402831077577,33.60812347688535]}},{"type":"Feature","id":29,"properties":{"NAME":"Orange County Zoo","TEL":"714-973-6840","URL":"https://www.ocparks.com/oc-zoo","ADDRESS1":"1 Irvine Park Rd Orange, CA 92869","ADDRES2":null,"CITY":"New York","ZIP":10036},"geometry":{"type":"Point","coordinates":[-117.75040268898009,33.796401280079266]}},{"type":"Feature","id":30,"properties":{"NAME":"Pacific Marine Mammal Ctr.","TEL":"949-494-3050","URL":"https://www.pacificmmc.org/","ADDRESS1":"20612 Laguna Canyon Road, Laguna Beach, CA 92651","ADDRES2":null,"CITY":"New York","ZIP":10036},"geometry":{"type":"Point","coordinates":[-117.7625195682049,33.572939733486535]}},{"type":"Feature","id":31,"properties":{"NAME":"The Reptile Zoo","TEL":"714-500-0591","URL":"https://thereptilezoo.com/","ADDRESS1":"18818 Brookhurst St Fountain Valley, CA 92708","ADDRES2":null,"CITY":"New York","ZIP":10036},"geometry":{"type":"Point","coordinates":[-117.95340299606322,33.68976356702366]}}]}